[
  {"lat":2.821692,"lon":101.811486,"uid":2588,"name":"Nilai","state":"Negeri Sembilan","country":"Malaysia"},
  {"lat":3.156398,"lon":101.709812,"uid":-399373,"name":"KLCC","state":"Kuala Lumpur","country":"Malaysia"},
  {"lat":1.564056,"lon":104.225306,"uid":2577,"name":"Kota Tinggi","state":"Johor","country":"Malaysia"},
  {"lat":2.294794,"lon":102.571595,"uid":10484,"name":"Tangkak","state":"Johor","country":"Malaysia"},
  {"lat":1.919323,"lon":102.866618,"uid":9493,"name":"Batu Pahat","state":"Johor","country":"Malaysia"},
  {"lat":4.262121,"lon":103.425778,"uid":2622,"name":"Kemaman","state":"Terengganu","country":"Malaysia"},
  {"lat":5.629631,"lon":100.467771,"uid":2582,"name":"Bakar Arang, Sg. Petani","state":"Kedah","country":"Malaysia"},
  {"lat":3.177084,"lon":113.041091,"uid":2607,"name":"Bintulu","state":"Sarawak","country":"Malaysia"},
  {"lat":4.494791,"lon":114.043416,"uid":2608,"name":"ILP Miri","state":"Sarawak","country":"Malaysia"},
  {"lat":4.629444,"lon":101.11665,"uid":2594,"name":"Jalan Tasek, Ipoh","state":"Perak","country":"Malaysia"},
  {"lat":2.190936,"lon":102.257058,"uid":2586,"name":"Bandaraya Melaka","state":"Melaka","country":"Malaysia"},
  {"lat":3.471603,"lon":102.376406,"uid":9497,"name":"Temerloh","state":"Pahang","country":"Malaysia"},
  {"lat":5.339317,"lon":116.163658,"uid":2603,"name":"Keningau","state":"Sabah","country":"Malaysia"},
  {"lat":3.146015,"lon":101.710211,"uid":-399724,"name":"Bukit Bintang","state":"Kuala Lumpur","country":"Malaysia"},
  {"lat":5.298107,"lon":115.232106,"uid":2627,"name":"Labuan","state":"Wilayah Persekutuan Labuan","country":"Malaysia"},
  {"lat":2.883238,"lon":112.019742,"uid":9501,"name":"Mukah","state":"Sarawak","country":"Malaysia"},
  {"lat":2.258519,"lon":102.172683,"uid":2587,"name":"Bukit Rambai","state":"Melaka","country":"Malaysia"},
  {"lat":3.321308,"lon":101.256242,"uid":2618,"name":"Kuala Selangor","state":"Selangor","country":"Malaysia"},
  {"lat":5.356211,"lon":100.30792,"uid":9489,"name":"Minden","state":"Pulau Pinang","country":"Malaysia"},
  {"lat":5.329358,"lon":100.443475,"uid":2600,"name":"Perai","state":"Pulau Pinang","country":"Malaysia"},
  {"lat":4.758891,"lon":115.013667,"uid":2611,"name":"Limbang","state":"Sarawak","country":"Malaysia"},
  {"lat":2.314408,"lon":111.831916,"uid":2615,"name":"Sibu","state":"Sarawak","country":"Malaysia"},
  {"lat":2.370925,"lon":102.224592,"uid":9491,"name":"Alor Gajah","state":"Melaka","country":"Malaysia"},
  {"lat":2.914816,"lon":101.69005,"uid":10485,"name":"Putrajaya","state":"Wilayah Persekutuan Putrajaya","country":"Malaysia"},
  {"lat":5.538225,"lon":115.850556,"uid":9499,"name":"Kimanis","state":"Sabah","country":"Malaysia"},
  {"lat":2.816689,"lon":101.623158,"uid":2617,"name":"Banting","state":"Selangor","country":"Malaysia"},
  {"lat":5.811172,"lon":102.1345,"uid":2585,"name":"Tanah Merah","state":"Kelantan","country":"Malaysia"},
  {"lat":6.331539,"lon":99.85846,"uid":2583,"name":"Langkawi","state":"Kedah","country":"Malaysia"},
  {"lat":6.429922,"lon":100.211069,"uid":2599,"name":"Kangar","state":"Perlis","country":"Malaysia"},
  {"lat":4.249786,"lon":117.935864,"uid":2606,"name":"Tawau","state":"Sabah","country":"Malaysia"},
  {"lat":5.864467,"lon":118.091089,"uid":2605,"name":"Sandakan","state":"Sabah","country":"Malaysia"},
  {"lat":3.94836,"lon":102.366632,"uid":2593,"name":"Jerantut","state":"Pahang","country":"Malaysia"},
  {"lat":1.562229,"lon":110.388958,"uid":2610,"name":"Kuching","state":"Sarawak","country":"Malaysia"},
  {"lat":2.441383,"lon":101.866858,"uid":2589,"name":"Port Dickson","state":"Negeri Sembilan","country":"Malaysia"},
  {"lat":2.723381,"lon":101.968497,"uid":2590,"name":"Seremban","state":"Negeri Sembilan","country":"Malaysia"},
  {"lat":3.104717,"lon":101.556222,"uid":2621,"name":"Shah Alam","state":"Selangor","country":"Malaysia"},
  {"lat":5.39817,"lon":100.403947,"uid":2601,"name":"Seberang Jaya 2, Perai","state":"Pulau Pinang","country":"Malaysia"},
  {"lat":5.89372,"lon":116.04327,"uid":2604,"name":"Kota Kinabalu","state":"Sabah","country":"Malaysia"},
  {"lat":2.493914,"lon":102.862694,"uid":9492,"name":"Segamat","state":"Johor","country":"Malaysia"},
  {"lat":5.308094,"lon":103.120392,"uid":2623,"name":"Kuala Terengganu","state":"Terengganu","country":"Malaysia"},
  {"lat":3.819217,"lon":103.29655,"uid":2592,"name":"Indera Mahkota, Kuantan","state":"Pahang","country":"Malaysia"},
  {"lat":2.132809,"lon":111.52287,"uid":2614,"name":"Sarikei","state":"Sarawak","country":"Malaysia"},
  {"lat":3.537059,"lon":113.295168,"uid":9500,"name":"Samalaju","state":"Sarawak","country":"Malaysia"},
  {"lat":1.470122,"lon":103.893456,"uid":2580,"name":"Pasir Gudang","state":"Johor","country":"Malaysia"},
  {"lat":6.147431,"lon":102.249236,"uid":9556,"name":"Kota Bharu","state":"Kelantan","country":"Malaysia"},
  {"lat":5.401688,"lon":100.58968,"uid":9488,"name":"Kulim Hi-Tech","state":"Kedah","country":"Malaysia"},
  {"lat":1.454853,"lon":110.491505,"uid":2613,"name":"Samarahan","state":"Sarawak","country":"Malaysia"},
  {"lat":1.219656,"lon":111.464792,"uid":2616,"name":"Sri Aman","state":"Sarawak","country":"Malaysia"},
  {"lat":2.926645,"lon":103.419198,"uid":9496,"name":"Rompin","state":"Pahang","country":"Malaysia"},
  {"lat":5.337598,"lon":100.214721,"uid":9490,"name":"Balik Pulau","state":"Pulau Pinang","country":"Malaysia"},
  {"lat":6.137244,"lon":100.346815,"uid":2581,"name":"Alor Setar","state":"Kedah","country":"Malaysia"},
  {"lat":2.037882,"lon":103.312063,"uid":9494,"name":"Kluang","state":"Johor","country":"Malaysia"},
  {"lat":4.89885,"lon":100.679106,"uid":2595,"name":"Kg. Air Putih, Taiping","state":"Perak","country":"Malaysia"},
  {"lat":3.960644,"lon":103.382158,"uid":2591,"name":"Balok Baru, Kuantan","state":"Pahang","country":"Malaysia"},
  {"lat":3.133169,"lon":101.608011,"uid":2620,"name":"Petaling Jaya","state":"Selangor","country":"Malaysia"},
  {"lat":2.014498,"lon":112.92736,"uid":2609,"name":"Kapit","state":"Sarawak","country":"Malaysia"},
  {"lat":4.424679,"lon":114.012426,"uid":2612,"name":"Miri","state":"Sarawak","country":"Malaysia"},
  {"lat":4.553336,"lon":101.080236,"uid":2596,"name":"S K Jalan Pegoh, Ipoh","state":"Perak","country":"Malaysia"},
  {"lat":1.494625,"lon":103.735975,"uid":2578,"name":"Larkin Lama","state":"Johor","country":"Malaysia"},
  {"lat":3.687758,"lon":101.524494,"uid":2598,"name":"Tanjung Malim","state":"Perak","country":"Malaysia"},
  {"lat":4.598064,"lon":103.434819,"uid":2624,"name":"Paka","state":"Terengganu","country":"Malaysia"},
  {"lat":4.200344,"lon":100.663358,"uid":2597,"name":"Seri Manjung","state":"Perak","country":"Malaysia"},
  {"lat":1.389489,"lon":104.149586,"uid":9495,"name":"Pengerang","state":"Johor","country":"Malaysia"},
  {"lat":5.748449,"lon":102.515632,"uid":9498,"name":"Besut","state":"Terengganu","country":"Malaysia"},
  {"lat":3.212439,"lon":101.682228,"uid":2625,"name":"Batu Muda","state":"Kuala Lumpur","country":"Malaysia"}
]